Countyfp,Blkgrpce,Funcstat,Geoid,Latitude,Longitude,Mtfcc,Namelsad,Statefp,Tractce,Aland,Awater,Latitude,Longitude,Accuracy Score,Accuracy Type,Number,Street,Unit Type,Unit Number,City,State,County,Zip,Country,Source
1,3,S,60014072003,37.7810475,-122.2207426,G5030,Block Group 3,6,407200,154734,0,37.781189,-122.220502,1,rooftop,3440,E 18th St,,,Oakland,CA,Alameda County,94601,US,Alameda
1,1,S,60014036001,37.813905,-122.2514033,G5030,Block Group 1,6,403600,146321,0,37.813716,-122.251725,1,rooftop,327,Macarthur Blvd,,,Oakland,CA,Alameda County,94610,US,Alameda
1,2,S,60014036002,37.8143295,-122.2541744,G5030,Block Group 2,6,403600,104064,0,37.814089,-122.253995,1,rooftop,382,Jayne Ave,,,Oakland,CA,Alameda County,94610,US,Alameda
1,1,S,60014038001,37.8157941,-122.2363634,G5030,Block Group 1,6,403800,169922,0,37.815633,-122.236375,1,rooftop,4014,Lakeshore Ave,,,Oakland,CA,Alameda County,94610,US,Alameda
1,2,S,60014038002,37.8137422,-122.2418254,G5030,Block Group 2,6,403800,110445,0,37.81378,-122.241863,1,rooftop,536,Prince St,,,Oakland,CA,Alameda County,94610,US,Alameda
1,3,S,60014038003,37.8117793,-122.2457459,G5030,Block Group 3,6,403800,137664,0,37.81186,-122.245472,1,rooftop,724,Warfield Ave,,,Oakland,CA,Alameda County,94610,US,Alameda
1,1,S,60014072001,37.7747982,-122.2153448,G5030,Block Group 1,6,407200,187460,0,37.774666,-122.215163,1,rooftop,1610,41st Ave,,,Oakland,CA,Alameda County,94601,US,Alameda
1,2,S,60014072002,37.7772385,-122.2179758,G5030,Block Group 2,6,407200,153168,0,37.777101,-122.217657,1,rooftop,1728,38th Ave,,,Oakland,CA,Alameda County,94601,US,Alameda
1,4,S,60014072004,37.778416,-122.222523,G5030,Block Group 4,6,407200,219709,0,37.778539,-122.222135,1,rooftop,1530,34th Ave,,,Oakland,CA,Alameda County,94601,US,Alameda
1,1,S,60014073001,37.7635253,-122.2056091,G5030,Block Group 1,6,407300,601340,0,37.763509,-122.206241,1,rooftop,1127,57th Ave,,,Oakland,CA,Alameda County,94621,US,Alameda
1,2,S,60014073002,37.7591937,-122.2107741,G5030,Block Group 2,6,407300,1769577,209253,37.759146,-122.210838,1,rooftop,555,Julie Way,,,Oakland,CA,Alameda County,94621,US,Alameda
1,1,S,60014074001,37.7701192,-122.2034528,G5030,Block Group 1,6,407400,231212,0,37.770054,-122.203583,1,rooftop,5407,Wadean Pl,,,Oakland,CA,Alameda County,94601,US,Alameda
1,2,S,60014074002,37.7710927,-122.2076849,G5030,Block Group 2,6,407400,151486,0,37.771152,-122.207873,1,rooftop,1531,50th Ave,,,Oakland,CA,Alameda County,94601,US,Alameda
1,1,S,60014211001,37.9010258,-122.2644524,G5030,Block Group 1,6,421100,311737,0,37.900929,-122.264578,1,rooftop,632,Woodmont Ave,,,Berkeley,CA,Alameda County,94708,US,Berkeley
1,2,S,60014211002,37.8982901,-122.2674436,G5030,Block Group 2,6,421100,433773,0,37.898315,-122.267432,1,rooftop,708,Euclid Ave,,,Berkeley,CA,Alameda County,94708,US,Berkeley
1,1,S,60014212001,37.9020947,-122.2727096,G5030,Block Group 1,6,421200,255412,1509,37.902039,-122.272722,1,rooftop,437,Michigan Ave,,,Berkeley,CA,Alameda County,94707,US,Alameda
1,2,S,60014093002,37.7374928,-122.1692389,G5030,Block Group 2,6,409300,195169,0,37.737478,-122.169176,1,rooftop,1255,106th Ave,,,Oakland,CA,Alameda County,94603,US,Alameda
1,3,S,60014215003,37.8888342,-122.2641201,G5030,Block Group 3,6,421500,480972,3635,37.888823,-122.263985,1,rooftop,1107,High Ct,,,Berkeley,CA,Alameda County,94708,US,Berkeley
1,1,S,60014044001,37.8492052,-122.2191142,G5030,Block Group 1,6,404400,2203340,0,37.846772,-122.217859,0.96,nearest_street,6230,Fairlane Dr,,,Oakland,CA,Alameda County,94611,US,TIGER/Line¬Æ dataset from the US Census Bureau
1,2,S,60014034002,37.8024095,-122.2651075,G5030,Block Group 2,6,403400,99215,0,37.802359,-122.265234,1,rooftop,210,14th St,,,Oakland,CA,Alameda County,94612,US,Alameda
1,2,S,60014076002,37.7794344,-122.2030542,G5030,Block Group 2,6,407600,187231,0,37.779391,-122.202983,1,rooftop,4716,Fairfax Ave,,,Oakland,CA,Alameda County,94601,US,Alameda
1,2,S,60014055002,37.7973426,-122.2423227,G5030,Block Group 2,6,405500,96237,0,37.797131,-122.2423,1,rooftop,2146,10th Ave,,,Oakland,CA,Alameda County,94606,US,Alameda
1,3,S,60014085003,37.7574919,-122.1787924,G5030,Block Group 3,6,408500,124030,0,37.75736,-122.178665,1,rooftop,1487,81st Ave,,,Oakland,CA,Alameda County,94621,US,Alameda
1,2,S,60014231002,37.866058,-122.2865627,G5030,Block Group 2,6,423100,157595,0,37.866093,-122.286458,1,rooftop,2223,Bonar St,,,Berkeley,CA,Alameda County,94702,US,Berkeley
1,3,S,60014012003,37.8257833,-122.259788,G5030,Block Group 3,6,401200,189381,0,37.825821,-122.259891,1,rooftop,3764,Shafter Ave,,,Oakland,CA,Alameda County,94609,US,Alameda
1,3,S,60014044003,37.8451251,-122.2076805,G5030,Block Group 3,6,404400,1356655,0,37.845257,-122.207951,1,rooftop,6601,Heather Ridge Way,,,Oakland,CA,Alameda County,94611,US,Alameda
1,1,S,60014060001,37.7881343,-122.2589449,G5030,Block Group 1,6,406000,1617848,467979,37.787642,-122.259513,1,rooftop,37,8th Ave,,,Oakland,CA,Alameda County,94606,US,Alameda
1,3,S,60014013003,37.8151016,-122.2664711,G5030,Block Group 3,6,401300,213852,0,37.814946,-122.266612,1,rooftop,411,26th St,,,Oakland,CA,Alameda County,94612,US,Alameda
1,4,S,60014011004,37.8325407,-122.2651376,G5030,Block Group 4,6,401100,324943,0,37.832705,-122.265128,1,rooftop,552,44th St,,,Oakland,CA,Alameda County,94609,US,Alameda
1,1,S,60014012001,37.8337576,-122.2568764,G5030,Block Group 1,6,401200,329348,0,37.833757,-122.256887,1,rooftop,366,45th St,,,Oakland,CA,Alameda County,94609,US,Alameda
1,2,S,60014012002,37.8297224,-122.2578312,G5030,Block Group 2,6,401200,144897,0,37.829773,-122.257702,1,rooftop,4131,Manila Ave,,,Oakland,CA,Alameda County,94609,US,Alameda
1,1,S,60014013001,37.8208806,-122.2653728,G5030,Block Group 1,6,401300,445067,0,37.820519,-122.265339,1,rooftop,435,Hawthorne Ave,,,Oakland,CA,Alameda County,94609,US,Alameda
1,2,S,60014013002,37.8151809,-122.2698957,G5030,Block Group 2,6,401300,199540,0,37.815122,-122.269887,1,rooftop,559,Sycamore St,,,Oakland,CA,Alameda County,94612,US,Alameda
1,1,S,60014047001,37.8112653,-122.2106433,G5030,Block Group 1,6,404700,606892,0,37.811118,-122.210674,1,rooftop,1555,Leimert Blvd,,,Oakland,CA,Alameda County,94602,US,Alameda
1,2,S,60014045022,37.8353471,-122.2066626,G5030,Block Group 2,6,404502,680323,0,37.835252,-122.206626,1,rooftop,5938,Almaden Ln,,,Oakland,CA,Alameda County,94611,US,Alameda
1,1,S,60014045021,37.8405522,-122.20378,G5030,Block Group 1,6,404502,508580,0,37.840476,-122.203642,1,rooftop,1,Overlake Ct,,,Oakland,CA,Alameda County,94611,US,Alameda
1,2,S,60014096002,37.753611,-122.1705009,G5030,Block Group 2,6,409600,148064,0,37.753518,-122.170635,1,rooftop,8725,Birch St,,,Oakland,CA,Alameda County,94621,US,Alameda
1,1,S,60014099001,37.7673575,-122.145138,G5030,Block Group 1,6,409900,1422956,0,37.765599,-122.143969,0.96,nearest_street,4408,St Andrews Rd,,,Oakland,CA,Alameda County,94605,US,TIGER/Line¬Æ dataset from the US Census Bureau
1,2,S,60014216002,37.8837199,-122.255285,G5030,Block Group 2,6,421600,506555,0,37.883774,-122.255178,1,rooftop,3025,Buena Vista Way,,,Berkeley,CA,Alameda County,94708,US,Alameda
1,4,S,60014052004,37.8075667,-122.2471899,G5030,Block Group 4,6,405200,164153,0,37.807704,-122.247278,1,rooftop,541,Merritt Ave,,,Oakland,CA,Alameda County,94610,US,Alameda
1,1,S,60014223001,37.8763236,-122.2781388,G5030,Block Group 1,6,422300,159604,0,37.876191,-122.278375,1,rooftop,1630,McGee Ave,,,Berkeley,CA,Alameda County,94703,US,Berkeley
1,3,S,60014014003,37.8166863,-122.2731129,G5030,Block Group 3,6,401400,246694,0,37.816781,-122.273068,1,rooftop,706,26th St,,,Oakland,CA,Alameda County,94612,US,Alameda
1,2,S,60014016002,37.8158604,-122.281218,G5030,Block Group 2,6,401600,261886,0,37.815806,-122.28121,1,rooftop,2236,Linden St,,,Oakland,CA,Alameda County,94607,US,Alameda
1,1,S,60014016001,37.8184286,-122.2816672,G5030,Block Group 1,6,401600,374250,0,37.818271,-122.281608,1,rooftop,1089,26th St,,,Oakland,CA,Alameda County,94607,US,Alameda
1,1,S,60014098001,37.7641418,-122.1551932,G5030,Block Group 1,6,409800,755183,0,37.765734,-122.152288,0.98,nearest_street,,I 580,,,Oakland,CA,Alameda County,94605,US,TIGER/Line¬Æ dataset from the US Census Bureau
1,1,S,60014001001,37.8676275,-122.231946,G5030,Block Group 1,6,400100,6894339,0,37.867727,-122.230783,0.99,rooftop,8071,Claremont Ave,,,Berkeley,CA,Alameda County,94705,US,Alameda
1,2,S,60014046002,37.8293961,-122.1903066,G5030,Block Group 2,6,404600,361422,0,37.829424,-122.190213,1,rooftop,6203,Elderberry Dr,,,Oakland,CA,Alameda County,94611,US,Alameda
1,2,S,60014044002,37.8372904,-122.2170523,G5030,Block Group 2,6,404400,559680,0,37.837372,-122.217118,1,rooftop,5639,Florence Te,,,Oakland,CA,Alameda County,94611,US,Alameda
1,1,S,60014029001,37.807172,-122.2667847,G5030,Block Group 1,6,402900,391800,0,37.807272,-122.266794,1,rooftop,1919,Webster St,,,Oakland,CA,Alameda County,94612,US,Alameda
1,4,S,60014058004,37.7963775,-122.236514,G5030,Block Group 4,6,405800,96490,0,37.796293,-122.236641,1,rooftop,1341,E 25th St,,,Oakland,CA,Alameda County,94606,US,Alameda
1,5,S,60014096005,37.7545984,-122.1758005,G5030,Block Group 5,6,409600,186223,0,37.754682,-122.175766,1,rooftop,8426,Holly St,,,Oakland,CA,Alameda County,94621,US,Alameda
1,3,S,60014227003,37.8678056,-122.2528516,G5030,Block Group 3,6,422700,100646,0,37.867933,-122.252784,1,rooftop,2727,Channing Way,,,Berkeley,CA,Alameda County,94704,US,Alameda
1,2,S,60014081002,37.7832954,-122.1662839,G5030,Block Group 2,6,408100,3064327,0,37.783338,-122.166183,1,rooftop,6234,Ridgemont Dr,,,Oakland,CA,Alameda County,94619,US,Alameda
1,1,S,60014033001,37.7937603,-122.2667344,G5030,Block Group 1,6,403300,737623,96764,37.793855,-122.266954,1,rooftop,300,Oak St,,,Oakland,CA,Alameda County,94607,US,Alameda
1,2,S,60014033002,37.7983201,-122.266823,G5030,Block Group 2,6,403300,178214,0,37.798536,-122.266666,1,rooftop,178,9th St,,,Oakland,CA,Alameda County,94607,US,Alameda
1,1,S,60014034001,37.8092493,-122.2597833,G5030,Block Group 1,6,403400,489612,602434,37.809921,-122.258968,0.99,rooftop,246,Grand Ave,,,Oakland,CA,Alameda County,94610,US,Alameda
1,2,S,60014069002,37.7929613,-122.1889185,G5030,Block Group 2,6,406900,408799,0,37.792937,-122.189004,1,rooftop,4130,Maybelle Ave,,,Oakland,CA,Alameda County,94619,US,Alameda
1,3,S,60014069003,37.7903513,-122.194336,G5030,Block Group 3,6,406900,249712,0,37.790295,-122.194176,1,rooftop,3719,Maybelle Ave,,,Oakland,CA,Alameda County,94619,US,Alameda
1,1,S,60014070001,37.7903072,-122.1992662,G5030,Block Group 1,6,407000,199263,0,37.790297,-122.199222,1,rooftop,3481,38th Ave,,,Oakland,CA,Alameda County,94619,US,Alameda
1,3,S,60014070003,37.7848528,-122.2040373,G5030,Block Group 3,6,407000,156803,0,37.784766,-122.203883,1,rooftop,2801,Eastman Ave,,,Oakland,CA,Alameda County,94619,US,Alameda
1,4,S,60014070004,37.7876747,-122.2070924,G5030,Block Group 4,6,407000,153763,0,37.787734,-122.206925,1,rooftop,2800,Abbey St,,,Oakland,CA,Alameda County,94619,US,Alameda
1,5,S,60014070005,37.7895816,-122.2034366,G5030,Block Group 5,6,407000,168021,0,37.789919,-122.203538,1,rooftop,3635,Suter St,,,Oakland,CA,Alameda County,94619,US,Alameda
1,2,S,60014042002,37.8378421,-122.2283838,G5030,Block Group 2,6,404200,426544,0,37.837956,-122.228254,1,rooftop,414,Modoc Ave,,,Oakland,CA,Alameda County,94618,US,Alameda
1,3,S,60014045023,37.8368743,-122.1944952,G5030,Block Group 3,6,404502,803447,0,37.836921,-122.19424,1,rooftop,7192,Saroni Dr,,,Oakland,CA,Alameda County,94611,US,Alameda
1,2,S,60014047002,37.8120593,-122.2049634,G5030,Block Group 2,6,404700,593276,0,37.812007,-122.204904,1,rooftop,4474,Arcadia Ave,,,Oakland,CA,Alameda County,94602,US,Alameda
1,1,S,60014080001,37.8070271,-122.1849504,G5030,Block Group 1,6,408000,527118,0,37.807282,-122.18464,1,rooftop,3334,Rubin Dr,,,Oakland,CA,Alameda County,94602,US,Alameda
1,2,S,60014239022,37.8546221,-122.2593548,G5030,Block Group 2,6,423902,182600,0,37.854664,-122.259385,1,rooftop,2407,Dowling Pl,,,Berkeley,CA,Alameda County,94705,US,Alameda
1,2,S,60014084002,37.7646834,-122.1713075,G5030,Block Group 2,6,408400,123832,0,37.764806,-122.171355,1,rooftop,2666,78th Ave,,,Oakland,CA,Alameda County,94605,US,Alameda
1,2,S,60014215002,37.8921303,-122.2622296,G5030,Block Group 2,6,421500,445737,0,37.892066,-122.262207,1,rooftop,990,Regal Rd,,,Berkeley,CA,Alameda County,94708,US,Berkeley
1,1,S,60014100001,37.7352689,-122.1283133,G5030,Block Group 1,6,410000,2537900,145283,37.734587,-122.129785,0.99,rooftop,3500,Revere Ave,,,Oakland,CA,Alameda County,94605,US,Alameda
1,2,S,60014080002,37.8014602,-122.1821037,G5030,Block Group 2,6,408000,1428557,0,37.801264,-122.182051,1,rooftop,3727,Brunell Dr,,,Oakland,CA,Alameda County,94602,US,Alameda
1,4,S,60014038004,37.8164158,-122.2430377,G5030,Block Group 4,6,403800,234637,0,37.816354,-122.243134,1,rooftop,975,Vermont St,,,Oakland,CA,Alameda County,94610,US,Alameda
1,1,S,60014039001,37.8196019,-122.2484272,G5030,Block Group 1,6,403900,163621,0,37.819585,-122.248343,1,rooftop,660,Vernon St,,,Oakland,CA,Alameda County,94610,US,Alameda
1,2,S,60014039002,37.8165263,-122.2473696,G5030,Block Group 2,6,403900,127587,0,37.816512,-122.247411,1,rooftop,570,Mira Vista Ave,,,Oakland,CA,Alameda County,94610,US,Alameda
1,3,S,60014076003,37.7745789,-122.2006395,G5030,Block Group 3,6,407600,205398,0,37.774624,-122.200442,1,rooftop,5132,Fairfax Ave,,,Oakland,CA,Alameda County,94601,US,Alameda
1,3,S,60014039003,37.8156264,-122.249936,G5030,Block Group 3,6,403900,201894,0,37.815693,-122.250047,1,rooftop,481,Jean St,,,Oakland,CA,Alameda County,94610,US,Alameda
1,1,S,60014040001,37.8213931,-122.2514505,G5030,Block Group 1,6,404000,130613,0,37.82153,-122.251608,1,rooftop,3815,Harrison St,,,Oakland,CA,Alameda County,94611,US,Alameda
1,2,S,60014040002,37.8243732,-122.2548852,G5030,Block Group 2,6,404000,236373,0,37.824346,-122.254712,1,rooftop,3850,Piedmont Ave,,,Oakland,CA,Alameda County,94611,US,Alameda
1,1,S,60014075001,37.7706223,-122.1938037,G5030,Block Group 1,6,407500,112786,0,37.770667,-122.1939,1,rooftop,5721,Trask St,,,Oakland,CA,Alameda County,94605,US,Alameda
1,2,S,60014075002,37.7678482,-122.1992672,G5030,Block Group 2,6,407500,233033,0,37.767979,-122.199215,1,rooftop,5630,E 17th St,,,Oakland,CA,Alameda County,94621,US,Alameda
1,3,S,60014075003,37.7712874,-122.1978975,G5030,Block Group 3,6,407500,148683,0,37.771237,-122.198108,1,rooftop,2041,55th Ave,,,Oakland,CA,Alameda County,94621,US,Alameda
1,1,S,60014076001,37.7815686,-122.1999667,G5030,Block Group 1,6,407600,240623,0,37.781539,-122.199954,1,rooftop,4618,Allendale Ave,,,Oakland,CA,Alameda County,94619,US,Alameda
1,4,S,60014076004,37.7748361,-122.2052873,G5030,Block Group 4,6,407600,198514,0,37.774801,-122.205166,1,rooftop,2129,50th Ave,,,Oakland,CA,Alameda County,94601,US,Alameda
1,5,S,60014076005,37.7765446,-122.2079969,G5030,Block Group 5,6,407600,190946,0,37.776554,-122.207864,1,rooftop,4500,Ellen St,,,Oakland,CA,Alameda County,94601,US,Alameda
1,1,S,60014077001,37.7743819,-122.1900897,G5030,Block Group 1,6,407700,302044,0,37.774441,-122.189986,1,rooftop,5715,Picardy Dr,,,Oakland,CA,Alameda County,94605,US,Alameda
1,2,S,60014077002,37.7754718,-122.1957234,G5030,Block Group 2,6,407700,202977,0,37.775395,-122.195781,1,rooftop,5335,El Camile Ave,,,Oakland,CA,Alameda County,94619,US,Alameda
1,3,S,60014077003,37.7791055,-122.1964733,G5030,Block Group 3,6,407700,209448,0,37.779165,-122.196568,1,rooftop,2760,Best Ave,,,Oakland,CA,Alameda County,94619,US,Alameda
1,4,S,60014077004,37.7780988,-122.1919345,G5030,Block Group 4,6,407700,203527,0,37.778158,-122.191931,1,rooftop,3051,Birdsall Ave,,,Oakland,CA,Alameda County,94619,US,Alameda
1,2,S,60014212002,37.8932124,-122.2729532,G5030,Block Group 2,6,421200,498078,0,37.893122,-122.272949,1,rooftop,912,Indian Rock Ave,,,Berkeley,CA,Alameda County,94707,US,Berkeley
1,3,S,60014212003,37.8970607,-122.2774898,G5030,Block Group 3,6,421200,289068,0,37.896947,-122.277477,1,rooftop,1936,Thousand Oaks Blvd,,,Berkeley,CA,Alameda County,94707,US,Berkeley
1,4,S,60014212004,37.9005666,-122.2771576,G5030,Block Group 4,6,421200,311605,0,37.900479,-122.277018,1,rooftop,539,Arlington Ave,,,Berkeley,CA,Alameda County,94707,US,Berkeley
1,1,S,60014094001,37.7450232,-122.1732307,G5030,Block Group 1,6,409400,127231,0,37.744901,-122.173051,1,rooftop,1300,96th Ave,,,Oakland,CA,Alameda County,94603,US,Alameda
1,3,S,60014074003,37.7726335,-122.2115616,G5030,Block Group 3,6,407400,128793,0,37.772558,-122.211444,1,rooftop,1600,45th Ave,,,Oakland,CA,Alameda County,94601,US,Alameda
1,3,S,60014217003,37.8792036,-122.2698581,G5030,Block Group 3,6,421700,141469,0,37.879417,-122.269869,1,rooftop,1536,Shattuck Ave,,,Berkeley,CA,Alameda County,94709,US,Alameda
1,1,S,60014003001,37.8439848,-122.2486668,G5030,Block Group 1,6,400300,265695,0,37.843939,-122.248587,1,rooftop,5592,Lawton Ave,,,Oakland,CA,Alameda County,94618,US,Alameda
1,2,S,60014018002,37.8080542,-122.299469,G5030,Block Group 2,6,401800,142635,0,37.808066,-122.299465,1,rooftop,824,Willow St,,,Oakland,CA,Alameda County,94607,US,Alameda
1,2,S,60014017002,37.8137274,-122.2975727,G5030,Block Group 2,6,401700,708287,0,37.813462,-122.297418,1,rooftop,1750,14th St,,,Oakland,CA,Alameda County,94607,US,Alameda
1,3,S,60014017003,37.813905,-122.315532,G5030,Block Group 3,6,401700,4181167,5813128,37.811589,-122.312124,0.95,nearest_street,1119,Maritime St,,,Oakland,CA,Alameda County,94607,US,TIGER/Line¬Æ dataset from the US Census Bureau
1,2,S,60014065002,37.787772,-122.2130573,G5030,Block Group 2,6,406500,106925,0,37.78777,-122.213084,1,rooftop,2415,Bartlett St,,,Oakland,CA,Alameda County,94601,US,Alameda
1,3,S,60014098003,37.7582662,-122.152588,G5030,Block Group 3,6,409800,387985,0,37.758115,-122.152527,1,rooftop,3456,Calandria Ave,,,Oakland,CA,Alameda County,94605,US,Alameda
1,2,S,60014099002,37.7584213,-122.1454985,G5030,Block Group 2,6,409900,385973,0,37.759208,-122.145749,0.99,rooftop,3964,Fairway Ave,,,Oakland,CA,Alameda County,94605,US,Alameda
1,4,S,60014045024,37.829419,-122.2055607,G5030,Block Group 4,6,404502,1079097,0,37.829356,-122.205598,1,rooftop,1949,Drake Dr,,,Oakland,CA,Alameda County,94611,US,Alameda
1,1,S,60014085001,37.7634083,-122.1780247,G5030,Block Group 1,6,408500,152034,0,37.76331,-122.177951,1,rooftop,2321,Maywood Ave,,,Oakland,CA,Alameda County,94605,US,Alameda
1,2,S,60014225002,37.8772704,-122.256666,G5030,Block Group 2,6,422500,116594,0,37.87727,-122.256595,1,rooftop,2704,Le Conte Ave,,,Berkeley,CA,Alameda County,94709,US,Alameda
1,1,S,60014239011,37.8539493,-122.2642841,G5030,Block Group 1,6,423901,136211,0,37.853842,-122.264403,1,rooftop,3046,Wheeler St,,,Berkeley,CA,Alameda County,94705,US,Alameda
1,1,S,60014018001,37.8108844,-122.2971077,G5030,Block Group 1,6,401800,155999,0,37.810657,-122.297183,1,rooftop,1685,12th St,,,Oakland,CA,Alameda County,94607,US,Alameda
1,3,S,60014046003,37.823498,-122.1922817,G5030,Block Group 3,6,404600,608862,0,37.823411,-122.192286,1,rooftop,2885,Chelsea Dr,,,Oakland,CA,Alameda County,94611,US,Alameda
1,3,S,60014099003,37.7620676,-122.1318066,G5030,Block Group 3,6,409900,1885314,0,37.76136,-122.131958,1,rooftop,69,Donna Way,,,Oakland,CA,Alameda County,94605,US,Alameda
1,4,S,60014046004,37.8159582,-122.1905688,G5030,Block Group 4,6,404600,3186606,0,37.815874,-122.190692,1,rooftop,68,Weybridge Ct,,,Oakland,CA,Alameda County,94611,US,Alameda
1,1,S,60014102001,37.7488168,-122.1601561,G5030,Block Group 1,6,410200,265551,0,37.748928,-122.160244,1,rooftop,2316,98th Ave,,,Oakland,CA,Alameda County,94603,US,Alameda
1,3,S,60014065003,37.7852273,-122.218786,G5030,Block Group 3,6,406500,251514,0,37.785183,-122.218766,1,rooftop,2239,34th Ave,,,Oakland,CA,Alameda County,94601,US,Alameda
1,2,S,60014024002,37.8101505,-122.281949,G5030,Block Group 2,6,402400,90089,0,37.81012,-122.282196,1,rooftop,1536,Filbert St,,,Oakland,CA,Alameda County,94607,US,Alameda
1,1,S,60014022001,37.8110283,-122.293106,G5030,Block Group 1,6,402200,171731,0,37.810975,-122.293217,1,rooftop,1451,14th St,,,Oakland,CA,Alameda County,94607,US,Alameda
1,2,S,60014022002,37.8069067,-122.2949686,G5030,Block Group 2,6,402200,112638,0,37.807043,-122.294939,1,rooftop,1473,9th St,,,Oakland,CA,Alameda County,94607,US,Alameda
1,1,S,60014024001,37.8127164,-122.2826432,G5030,Block Group 1,6,402400,246922,0,37.812611,-122.282363,1,rooftop,1908,Linden St,,,Oakland,CA,Alameda County,94607,US,Alameda
1,1,S,60014025001,37.8066561,-122.2844438,G5030,Block Group 1,6,402500,263581,0,37.806723,-122.284493,1,rooftop,1026,Linden St,,,Oakland,CA,Alameda County,94607,US,Alameda
1,2,S,60014025002,37.8033357,-122.285651,G5030,Block Group 2,6,402500,101873,0,37.803648,-122.285846,1,rooftop,1050,7th St,,,Oakland,CA,Alameda County,94607,US,Alameda
1,2,S,60014067002,37.799558,-122.2007395,G5030,Block Group 2,6,406700,154047,0,37.799605,-122.200629,1,rooftop,3062,Arizona St,,,Oakland,CA,Alameda County,94602,US,Alameda
1,3,S,60014067003,37.7998603,-122.2073513,G5030,Block Group 3,6,406700,360059,0,37.799969,-122.207638,1,rooftop,3707,Coolidge Ave,,,Oakland,CA,Alameda County,94602,US,Alameda
1,4,S,60014099004,37.7518334,-122.121086,G5030,Block Group 4,6,409900,638301,0,37.752054,-122.121321,1,rooftop,4731,Grass Valley Rd,,,Oakland,CA,Alameda County,94605,US,Alameda
1,3,S,60014100003,37.7525929,-122.1412317,G5030,Block Group 3,6,410000,1556176,0,37.749524,-122.137424,0.95,nearest_street,64,Edgemont Way,,,Oakland,CA,Alameda County,94605,US,TIGER/Line¬Æ dataset from the US Census Bureau
1,1,S,60014101001,37.7505798,-122.1561119,G5030,Block Group 1,6,410100,328700,0,37.750706,-122.156077,1,rooftop,2570,98th Ave,,,Oakland,CA,Alameda County,94605,US,Alameda
1,2,S,60014101002,37.7459053,-122.1516669,G5030,Block Group 2,6,410100,455737,0,37.746041,-122.151624,1,rooftop,10320,Shaw St,,,Oakland,CA,Alameda County,94605,US,Alameda
1,2,S,60014102002,37.7437283,-122.1560801,G5030,Block Group 2,6,410200,164563,0,37.743716,-122.156214,1,rooftop,10316,Longfellow Ave,,,Oakland,CA,Alameda County,94603,US,Alameda
1,3,S,60014102003,37.7409878,-122.1532464,G5030,Block Group 3,6,410200,155731,0,37.740846,-122.153207,1,rooftop,2374,108th Ave,,,Oakland,CA,Alameda County,94603,US,Alameda
1,1,S,60014103001,37.7483172,-122.1637669,G5030,Block Group 1,6,410300,171700,0,37.748342,-122.163685,1,rooftop,9711,Sunnyside St,,,Oakland,CA,Alameda County,94603,US,Alameda
1,2,S,60014103002,37.7463439,-122.1652271,G5030,Block Group 2,6,410300,207247,0,37.746049,-122.165175,1,rooftop,1800,98th Ave,,,Oakland,CA,Alameda County,94603,US,Alameda
1,2,S,60014100002,37.7455903,-122.1343439,G5030,Block Group 2,6,410000,2468191,0,37.745414,-122.134133,1,rooftop,11233,Kerrigan Dr,,,Oakland,CA,Alameda County,94605,US,Alameda
1,1,S,60014215001,37.8943823,-122.256187,G5030,Block Group 1,6,421500,663969,0,37.894426,-122.256286,1,rooftop,1020,Middlefield Rd,,,Berkeley,CA,Alameda County,94708,US,Alameda
1,1,S,60014042001,37.8399182,-122.2280405,G5030,Block Group 1,6,404200,414198,0,37.839931,-122.227863,1,rooftop,190,Modoc Ave,,,Oakland,CA,Alameda County,94618,US,Alameda
1,2,S,60014223002,37.8740621,-122.2779418,G5030,Block Group 2,6,422300,241982,0,37.874096,-122.278102,1,rooftop,1734,McGee Ave,,,Berkeley,CA,Alameda County,94703,US,Alameda
1,2,S,60014048002,37.8067164,-122.2139291,G5030,Block Group 2,6,404800,378242,0,37.806605,-122.213906,1,rooftop,3929,Lyman Rd,,,Oakland,CA,Alameda County,94602,US,Alameda
1,1,S,60014049001,37.8078486,-122.2171907,G5030,Block Group 1,6,404900,236315,0,37.807985,-122.217111,1,rooftop,1346,El Centro Ave,,,Oakland,CA,Alameda County,94602,US,Alameda
1,2,S,60014049002,37.8018564,-122.2191471,G5030,Block Group 2,6,404900,239117,0,37.801837,-122.219403,1,rooftop,1771,Evers Ave,,,Oakland,CA,Alameda County,94602,US,Alameda
1,3,S,60014049003,37.8017903,-122.2252349,G5030,Block Group 3,6,404900,227608,0,37.801941,-122.225223,1,rooftop,1515,Excelsior Ave,,,Oakland,CA,Alameda County,94602,US,Alameda
1,4,S,60014049004,37.8048105,-122.2238912,G5030,Block Group 4,6,404900,308145,0,37.804799,-122.22368,1,rooftop,3926,Randolph Ave,,,Oakland,CA,Alameda County,94602,US,Alameda
1,1,S,60014082001,37.7775115,-122.1764107,G5030,Block Group 1,6,408200,372649,0,37.777622,-122.176344,1,rooftop,3690,Delmont Ave,,,Oakland,CA,Alameda County,94605,US,Alameda
1,2,S,60014082002,37.7726987,-122.173173,G5030,Block Group 2,6,408200,366607,0,37.772709,-122.172976,1,rooftop,6848,Outlook Ave,,,Oakland,CA,Alameda County,94605,US,Alameda
1,3,S,60014082003,37.7749902,-122.1790656,G5030,Block Group 3,6,408200,162509,0,37.775078,-122.179099,1,rooftop,3363,64th Ave,,,Oakland,CA,Alameda County,94605,US,Alameda
1,1,S,60014083001,37.7771723,-122.1694776,G5030,Block Group 1,6,408300,261020,0,37.777048,-122.169349,1,rooftop,3962,Delmont Ave,,,Oakland,CA,Alameda County,94605,US,Alameda
1,1,S,60014216001,37.8858358,-122.2501011,G5030,Block Group 1,6,421600,423375,0,37.885818,-122.250136,1,rooftop,1346,Grizzly Peak Blvd,,,Berkeley,CA,Alameda County,94708,US,Alameda
1,3,S,60014216003,37.8834851,-122.2642023,G5030,Block Group 3,6,421600,220516,0,37.883458,-122.264311,1,rooftop,1336,Bay View Pl,,,Berkeley,CA,Alameda County,94708,US,Alameda
1,4,S,60014216004,37.8807078,-122.2615815,G5030,Block Group 4,6,421600,183025,0,37.880662,-122.261785,1,rooftop,1530,Euclid Ave,,,Berkeley,CA,Alameda County,94708,US,Alameda
1,1,S,60014217001,37.8837471,-122.2704017,G5030,Block Group 1,6,421700,288242,0,37.883548,-122.270564,1,rooftop,1301,Henry St,,,Berkeley,CA,Alameda County,94709,US,Berkeley
1,2,S,60014217002,37.8810108,-122.2700695,G5030,Block Group 2,6,421700,144111,0,37.880999,-122.270082,1,rooftop,1425,Henry St,,,Berkeley,CA,Alameda County,94709,US,Alameda
1,1,S,60014218001,37.88122,-122.27624,G5030,Block Group 1,6,421800,276209,0,37.881368,-122.276184,1,rooftop,1801,Rose St,,,Berkeley,CA,Alameda County,94703,US,Alameda
1,2,S,60014218002,37.879262,-122.2803471,G5030,Block Group 2,6,421800,252268,0,37.879324,-122.280413,1,rooftop,1411,California St,,,Berkeley,CA,Alameda County,94703,US,Alameda
1,1,S,60014219001,37.8805472,-122.2870362,G5030,Block Group 1,6,421900,217220,0,37.8806,-122.287081,1,rooftop,1300,Ordway St,,,Berkeley,CA,Alameda County,94702,US,Alameda
1,1,S,60014093001,37.7414834,-122.1711293,G5030,Block Group 1,6,409300,222001,0,37.741322,-122.171036,1,rooftop,1264,100th Ave,,,Oakland,CA,Alameda County,94603,US,Alameda
1,1,S,60014050001,37.8104871,-122.2191725,G5030,Block Group 1,6,405000,160445,0,37.810605,-122.219057,1,rooftop,1130,El Centro Ave,,,Oakland,CA,Alameda County,94602,US,Alameda
1,3,S,60014050003,37.8065966,-122.2340299,G5030,Block Group 3,6,405000,378082,0,37.806576,-122.234079,1,rooftop,1091,Brookwood Rd,,,Oakland,CA,Alameda County,94610,US,Alameda
1,1,S,60014051001,37.8111,-122.2261253,G5030,Block Group 1,6,405100,325887,0,37.811106,-122.226125,1,rooftop,1155,Sunnyhills Rd,,,Oakland,CA,Alameda County,94610,US,Alameda
1,2,S,60014051002,37.8097578,-122.2318657,G5030,Block Group 2,6,405100,198573,0,37.809726,-122.231888,1,rooftop,977,Longridge Rd,,,Oakland,CA,Alameda County,94610,US,Alameda
1,3,S,60014051003,37.8097878,-122.2378241,G5030,Block Group 3,6,405100,282514,0,37.809689,-122.237874,1,rooftop,752,Longridge Rd,,,Oakland,CA,Alameda County,94610,US,Alameda
1,2,S,60014083002,37.772157,-122.1608071,G5030,Block Group 2,6,408300,465631,0,37.772577,-122.161126,1,rooftop,7632,Valentine St,,,Oakland,CA,Alameda County,94605,US,Alameda
1,3,S,60014083003,37.7696737,-122.1636488,G5030,Block Group 3,6,408300,403907,0,37.769737,-122.1636,1,rooftop,7742,Sunkist Dr,,,Oakland,CA,Alameda County,94605,US,Alameda
1,4,S,60014083004,37.765542,-122.1645636,G5030,Block Group 4,6,408300,194701,0,37.765589,-122.164817,1,rooftop,7938,Ney Ave,,,Oakland,CA,Alameda County,94605,US,Alameda
1,5,S,60014083005,37.7689505,-122.1684568,G5030,Block Group 5,6,408300,196411,0,37.769017,-122.16846,1,rooftop,2933,76th Ave,,,Oakland,CA,Alameda County,94605,US,Alameda
1,1,S,60014084001,37.7665835,-122.1732192,G5030,Block Group 1,6,408400,191570,0,37.766684,-122.173386,1,rooftop,2657,75th Ave,,,Oakland,CA,Alameda County,94605,US,Alameda
1,3,S,60014084003,37.7628958,-122.1688653,G5030,Block Group 3,6,408400,227257,0,37.762894,-122.168899,1,rooftop,2363,80th Ave,,,Oakland,CA,Alameda County,94605,US,Alameda
1,2,S,60014085002,37.7606976,-122.1747594,G5030,Block Group 2,6,408500,263385,0,37.761546,-122.175531,0.99,rooftop,7701,Krause Ave,,,Oakland,CA,Alameda County,94605,US,Alameda
1,2,S,60014219002,37.8775933,-122.286693,G5030,Block Group 2,6,421900,233184,0,37.877669,-122.286764,1,rooftop,1365,Rose St,,,Berkeley,CA,Alameda County,94702,US,Berkeley
1,3,S,60014219003,37.8788161,-122.2918896,G5030,Block Group 3,6,421900,206314,0,37.878777,-122.292097,1,rooftop,1414,Santa Fe Ave,,,Berkeley,CA,Alameda County,94702,US,Alameda
1,1,S,60014220001,37.8592091,-122.3016412,G5030,Block Group 1,6,422000,3316851,5864364,37.859339,-122.298301,0.96,nearest_street,700,Dwight Way,,,Berkeley,CA,Alameda County,94710,US,TIGER/Line¬Æ dataset from the US Census Bureau
1,2,S,60014221002,37.8715624,-122.2959655,G5030,Block Group 2,6,422100,352205,0,37.871477,-122.296165,1,rooftop,929,Delaware St,,,Berkeley,CA,Alameda County,94710,US,Alameda
1,2,S,60014228002,37.8672349,-122.2600662,G5030,Block Group 2,6,422800,62051,0,37.867347,-122.260075,1,rooftop,2444,Durant Ave,,,Berkeley,CA,Alameda County,94704,US,Alameda
1,1,S,60014234001,37.8619109,-122.2764581,G5030,Block Group 1,6,423400,155738,0,37.86175,-122.276478,1,rooftop,2524,McGee Ave,,,Berkeley,CA,Alameda County,94703,US,Alameda
1,4,S,60014051004,37.8130578,-122.2374516,G5030,Block Group 4,6,405100,167546,0,37.812921,-122.237612,1,rooftop,677,Rosal Ave,,,Oakland,CA,Alameda County,94610,US,Alameda
1,5,S,60014051005,37.8136443,-122.2308638,G5030,Block Group 5,6,405100,282000,0,37.813556,-122.230938,1,rooftop,900,Carlston Ave,,,Oakland,CA,Alameda County,94610,US,Alameda
1,3,S,60014052003,37.8060373,-122.2447114,G5030,Block Group 3,6,405200,214893,0,37.805961,-122.244828,1,rooftop,663,Prospect Ave,,,Oakland,CA,Alameda County,94610,US,Alameda
1,1,S,60014052001,37.804747,-122.2391589,G5030,Block Group 1,6,405200,326912,0,37.804782,-122.239267,1,rooftop,628,Capell St,,,Oakland,CA,Alameda County,94610,US,Alameda
1,2,S,60014052002,37.8028717,-122.2465026,G5030,Block Group 2,6,405200,152164,0,37.802771,-122.246483,1,rooftop,417,Athol Ave,,,Oakland,CA,Alameda County,94606,US,Alameda
1,4,S,60014085004,37.7589105,-122.1807323,G5030,Block Group 4,6,408500,110350,0,37.758906,-122.180874,1,rooftop,1524,78th Ave,,,Oakland,CA,Alameda County,94621,US,Alameda
1,5,S,60014085005,37.7604217,-122.182819,G5030,Block Group 5,6,408500,181561,0,37.760607,-122.182926,1,rooftop,1660,74th Ave,,,Oakland,CA,Alameda County,94621,US,Alameda
1,1,S,60014086001,37.7686168,-122.1785329,G5030,Block Group 1,6,408600,512497,0,37.769035,-122.178495,1,rooftop,2511,Church St,,,Oakland,CA,Alameda County,94605,US,Alameda
1,2,S,60014086002,37.7660285,-122.1849081,G5030,Block Group 2,6,408600,238099,0,37.766128,-122.184989,1,rooftop,2500,67th Ave,,,Oakland,CA,Alameda County,94605,US,Alameda
1,3,S,60014086003,37.7631908,-122.1845752,G5030,Block Group 3,6,408600,162162,0,37.763208,-122.184478,1,rooftop,7015,Holly St,,,Oakland,CA,Alameda County,94621,US,Alameda
1,4,S,60014087004,37.7653848,-122.1960646,G5030,Block Group 4,6,408700,143340,0,37.765353,-122.196294,1,rooftop,6100,E 17th St,,,Oakland,CA,Alameda County,94621,US,Alameda
1,4,S,60014086004,37.7614081,-122.1886474,G5030,Block Group 4,6,408600,148683,0,37.761341,-122.188528,1,rooftop,1459,70th Ave,,,Oakland,CA,Alameda County,94621,US,Alameda
1,1,S,60014087001,37.7733104,-122.1846465,G5030,Block Group 1,6,408700,286499,0,37.773505,-122.184748,1,rooftop,6038,Brann St,,,Oakland,CA,Alameda County,94605,US,Alameda
1,3,S,60014087003,37.7646053,-122.1912339,G5030,Block Group 3,6,408700,170233,0,37.764648,-122.191214,1,rooftop,1920,65th Ave,,,Oakland,CA,Alameda County,94621,US,Alameda
1,3,S,60014222003,37.8716218,-122.2906394,G5030,Block Group 3,6,422200,206425,0,37.871586,-122.290649,1,rooftop,1144,Delaware St,,,Berkeley,CA,Alameda County,94702,US,Berkeley
1,5,S,60014087005,37.7675668,-122.1924487,G5030,Block Group 5,6,408700,179646,0,37.767637,-122.19246,1,rooftop,2215,62nd Ave,,,Oakland,CA,Alameda County,94605,US,Alameda
1,1,S,60014222001,37.8745312,-122.287272,G5030,Block Group 1,6,422200,309430,0,37.874528,-122.287309,1,rooftop,1327,Virginia St,,,Berkeley,CA,Alameda County,94702,US,Alameda
1,2,S,60014222002,37.8713133,-122.2852163,G5030,Block Group 2,6,422200,159156,0,37.871269,-122.285204,1,rooftop,1366,Hearst Ave,,,Berkeley,CA,Alameda County,94702,US,Alameda
1,3,S,60014223003,37.8718201,-122.2776493,G5030,Block Group 3,6,422300,158461,0,37.871961,-122.277842,1,rooftop,1920,McGee Ave,,,Berkeley,CA,Alameda County,94703,US,Alameda
1,1,S,60014224001,37.8756818,-122.2672884,G5030,Block Group 1,6,422400,190221,0,37.875373,-122.267067,1,rooftop,1803,Walnut St,,,Berkeley,CA,Alameda County,94720,US,Alameda
1,2,S,60014224002,37.8731571,-122.2709147,G5030,Block Group 2,6,422400,122567,0,37.873166,-122.27108,1,rooftop,1910,Milvia St,,,Berkeley,CA,Alameda County,94704,US,Alameda
1,3,S,60014224003,37.8762909,-122.2712759,G5030,Block Group 3,6,422400,162782,0,37.876433,-122.271472,1,rooftop,1947,Virginia St,,,Berkeley,CA,Alameda County,94709,US,Berkeley
1,1,S,60014225001,37.8786669,-122.2608172,G5030,Block Group 1,6,422500,155310,0,37.878816,-122.260648,1,rooftop,2501,Hilgard Ave,,,Berkeley,CA,Alameda County,94709,US,Berkeley
1,3,S,60014225003,37.8762235,-122.2621669,G5030,Block Group 3,6,422500,188432,0,37.876307,-122.261992,1,rooftop,2401,Ridge Rd,,,Berkeley,CA,Alameda County,94709,US,Berkeley
1,1,S,60019819001,37.7996526,-122.3170191,G5030,Block Group 1,6,981900,3741390,1420107,37.805664,-122.311631,0.93,nearest_street,1813,Middle Harbor Rd,,,Oakland,CA,Alameda County,94607,US,TIGER/Line¬Æ dataset from the US Census Bureau
1,2,S,60014004002,37.8448409,-122.2590489,G5030,Block Group 2,6,400400,247682,0,37.844903,-122.258912,1,rooftop,5812,Canning St,,,Oakland,CA,Alameda County,94609,US,Alameda
1,0,S,60019900000,37.6836979,-122.2281492,G5030,Block Group 0,6,990000,0,139280186,37.683698,-122.228149,0.15,nearest_place,,,,,Oakland,CA,Alameda County,94614,US,TIGER/Line¬Æ dataset from the US Census Bureau
1,3,S,60014022003,37.8043285,-122.2979451,G5030,Block Group 3,6,402200,427711,0,37.804404,-122.297882,1,rooftop,1561,5th St,,,Oakland,CA,Alameda County,94607,US,Alameda
1,3,S,60014005003,37.8501416,-122.2673478,G5030,Block Group 3,6,400500,91794,0,37.850349,-122.267341,1,rooftop,750,65th St,,,Oakland,CA,Alameda County,94609,US,Alameda
1,1,S,60014041011,37.8301496,-122.2474298,G5030,Block Group 1,6,404101,308717,0,37.829968,-122.247358,1,rooftop,4390,Piedmont Ave,,,Oakland,CA,Alameda County,94611,US,Alameda
1,1,S,60014053011,37.8025839,-122.2506998,G5030,Block Group 1,6,405301,151422,0,37.802554,-122.250635,1,rooftop,340,Hanover Ave,,,Oakland,CA,Alameda County,94606,US,Alameda
1,1,S,60014053021,37.7990812,-122.2555434,G5030,Block Group 1,6,405302,111933,0,37.799151,-122.255612,1,rooftop,116,E 15th St,,,Oakland,CA,Alameda County,94606,US,Alameda
1,2,S,60014095002,37.7528869,-122.1801347,G5030,Block Group 2,6,409500,197507,0,37.75275,-122.179899,1,rooftop,1252,84th Ave,,,Oakland,CA,Alameda County,94621,US,Alameda
1,2,S,60014041012,37.8300283,-122.252616,G5030,Block Group 2,6,404101,265024,0,37.82995,-122.252647,1,rooftop,4240,Gilbert St,,,Oakland,CA,Alameda County,94611,US,Alameda
1,2,S,60014059012,37.7895046,-122.2342697,G5030,Block Group 2,6,405901,186701,0,37.789518,-122.234391,1,rooftop,2111,San Antonio Way,,,Oakland,CA,Alameda County,94606,US,Alameda
1,2,S,60014059022,37.7897928,-122.2423201,G5030,Block Group 2,6,405902,287392,0,37.789756,-122.242506,1,rooftop,1552,16th Ave,,,Oakland,CA,Alameda County,94606,US,Alameda
1,1,S,60014054021,37.7926845,-122.2470105,G5030,Block Group 1,6,405402,191089,0,37.792894,-122.246925,1,rooftop,1048,Foothill Blvd,,,Oakland,CA,Alameda County,94606,US,Alameda
1,1,S,60014105001,37.8100159,-122.2889571,G5030,Block Group 1,6,410500,724478,0,37.809529,-122.288962,1,rooftop,1267,14th St,,,Oakland,CA,Alameda County,94607,US,Alameda
1,1,S,60019820001,37.796028,-122.2953295,G5030,Block Group 1,6,982000,1269350,269273,37.798648,-122.294674,0.96,nearest_street,1449,Middle Harbor Rd,,,Oakland,CA,Alameda County,94607,US,TIGER/Line¬Æ dataset from the US Census Bureau
1,1,S,60019832001,37.7959455,-122.277268,G5030,Block Group 1,6,983200,494544,146462,37.79602,-122.277355,1,rooftop,100,Washington St,,,Oakland,CA,Alameda County,94607,US,Alameda
1,2,S,60014043002,37.8447079,-122.2411377,G5030,Block Group 2,6,404300,343632,0,37.84469,-122.241039,1,rooftop,5929,Margarido Dr,,,Oakland,CA,Alameda County,94618,US,Alameda
1,3,S,60014043003,37.8411985,-122.2426187,G5030,Block Group 3,6,404300,492260,0,37.841204,-122.24264,1,rooftop,5654,Margarido Dr,,,Oakland,CA,Alameda County,94618,US,Alameda
1,1,S,60014048001,37.8036799,-122.2120882,G5030,Block Group 1,6,404800,250163,0,37.803581,-122.211971,1,rooftop,3859,Whittle Ave,,,Oakland,CA,Alameda County,94602,US,Alameda
1,1,S,60014078001,37.7808888,-122.1822023,G5030,Block Group 1,6,407800,715025,0,37.783731,-122.180898,0.98,nearest_street,,I 580,,,Oakland,CA,Alameda County,94619,US,TIGER/Line¬Æ dataset from the US Census Bureau
1,2,S,60014078002,37.7822631,-122.1904509,G5030,Block Group 2,6,407800,313812,0,37.782188,-122.190406,1,rooftop,3356,Morcom Ave,,,Oakland,CA,Alameda County,94619,US,Alameda
1,3,S,60014078003,37.7839084,-122.1963642,G5030,Block Group 3,6,407800,205854,0,37.78394,-122.196356,1,rooftop,4511,Camden St,,,Oakland,CA,Alameda County,94619,US,Alameda
1,1,S,60014079001,37.7899257,-122.1815369,G5030,Block Group 1,6,407900,522939,0,37.789988,-122.181696,1,rooftop,4510,Mattis Ct,,,Oakland,CA,Alameda County,94619,US,Alameda
1,2,S,60014079002,37.7866734,-122.184662,G5030,Block Group 2,6,407900,243287,0,37.786642,-122.184803,1,rooftop,4733,Wilkie St,,,Oakland,CA,Alameda County,94619,US,Alameda
1,3,S,60014079003,37.7873551,-122.1899712,G5030,Block Group 3,6,407900,332872,0,37.787311,-122.189942,1,rooftop,4500,Tulip Ave,,,Oakland,CA,Alameda County,94619,US,Alameda
1,1,S,60014213001,37.8957403,-122.2818149,G5030,Block Group 1,6,421300,334348,0,37.895665,-122.28177,1,rooftop,654,Santa Rosa Ave,,,Berkeley,CA,Alameda County,94707,US,Alameda
1,2,S,60014213002,37.8932714,-122.284265,G5030,Block Group 2,6,421300,275916,0,37.893185,-122.284196,1,rooftop,1685,San Lorenzo Ave,,,Berkeley,CA,Alameda County,94707,US,Berkeley
1,3,S,60014213003,37.888921,-122.2770068,G5030,Block Group 3,6,421300,267164,0,37.889165,-122.277034,1,rooftop,1841,Marin Ave,,,Berkeley,CA,Alameda County,94707,US,Berkeley
1,4,S,60014213004,37.8876861,-122.2803978,G5030,Block Group 4,6,421300,229211,0,37.887658,-122.280475,1,rooftop,1039,Sierra St,,,Berkeley,CA,Alameda County,94707,US,Berkeley
1,1,S,60014214001,37.8891849,-122.2690059,G5030,Block Group 1,6,421400,261754,0,37.889201,-122.269,1,rooftop,2100,Los Angeles Ave,,,Berkeley,CA,Alameda County,94707,US,Berkeley
1,2,S,60014214002,37.8873037,-122.2732763,G5030,Block Group 2,6,421400,213024,0,37.887208,-122.273023,1,rooftop,1962,Hopkins St,,,Berkeley,CA,Alameda County,94707,US,Alameda
1,4,S,60014240014,37.8478602,-122.2742677,G5030,Block Group 4,6,424001,165343,0,37.847811,-122.274311,1,rooftop,1629,63rd St,,,Berkeley,CA,Alameda County,94703,US,Alameda
1,1,S,60014240021,37.8517213,-122.2825346,G5030,Block Group 1,6,424002,175931,0,37.851855,-122.282621,1,rooftop,1316,Carrison St,,,Berkeley,CA,Alameda County,94702,US,Berkeley
1,2,S,60014240022,37.8490301,-122.2803779,G5030,Block Group 2,6,424002,151292,0,37.849037,-122.280528,1,rooftop,3223,Boise St,,,Berkeley,CA,Alameda County,94702,US,Berkeley
1,2,S,60014056002,37.799495,-122.2371528,G5030,Block Group 2,6,405600,176869,0,37.799432,-122.23703,1,rooftop,2720,11th Ave,,,Oakland,CA,Alameda County,94606,US,Alameda
1,2,S,60014002002,37.8465865,-122.2503095,G5030,Block Group 2,6,400200,298490,0,37.846704,-122.250396,1,rooftop,5850,Birch Ct,,,Oakland,CA,Alameda County,94618,US,Alameda
1,1,S,60014055001,37.7958758,-122.2406571,G5030,Block Group 1,6,405500,96014,0,37.795644,-122.240594,1,rooftop,2136,12th Ave,,,Oakland,CA,Alameda County,94606,US,Alameda
1,3,S,60014055003,37.7988209,-122.2439761,G5030,Block Group 3,6,405500,95924,0,37.799077,-122.243992,1,rooftop,2203,8th Ave,,,Oakland,CA,Alameda County,94606,US,Alameda
1,4,S,60014055004,37.8004656,-122.2455204,G5030,Block Group 4,6,405500,123546,0,37.800431,-122.245515,1,rooftop,546,E 22nd St,,,Oakland,CA,Alameda County,94606,US,Alameda
1,1,S,60014056001,37.8024919,-122.2343274,G5030,Block Group 1,6,405600,119879,0,37.802358,-122.234246,1,rooftop,1102,E 33rd St,,,Oakland,CA,Alameda County,94610,US,Alameda
1,3,S,60014057003,37.7976537,-122.2316953,G5030,Block Group 3,6,405700,196452,0,37.798283,-122.231671,1,rooftop,1411,E 31st St,,,Oakland,CA,Alameda County,94602,US,Alameda
1,3,S,60014056003,37.801018,-122.2401072,G5030,Block Group 3,6,405600,132026,0,37.800962,-122.24,1,rooftop,2602,8th Ave,,,Oakland,CA,Alameda County,94606,US,Alameda
1,1,S,60014057001,37.8000788,-122.2292722,G5030,Block Group 1,6,405700,208904,0,37.800197,-122.229291,1,rooftop,3225,Beaumont Ave,,,Oakland,CA,Alameda County,94602,US,Alameda
1,2,S,60014057002,37.7963034,-122.2274598,G5030,Block Group 2,6,405700,141504,0,37.79627,-122.227281,1,rooftop,2927,22nd Ave,,,Oakland,CA,Alameda County,94606,US,Alameda
1,1,S,60014058001,37.7920943,-122.2300626,G5030,Block Group 1,6,405800,162231,0,37.792025,-122.229914,1,rooftop,2426,Highland Ave,,,Oakland,CA,Alameda County,94606,US,Alameda
1,2,S,60014058002,37.7934584,-122.2326243,G5030,Block Group 2,6,405800,120386,0,37.793334,-122.232776,1,rooftop,1950,E 24th St,,,Oakland,CA,Alameda County,94606,US,Alameda
1,1,S,60014226001,37.8737724,-122.254627,G5030,Block Group 1,6,422600,1699288,0,37.873883,-122.254483,1,rooftop,2594,Hearst Ave,,,Oakland,CA,Alameda County,94602,US,Berkeley
1,6,S,60014087006,37.7698794,-122.1886054,G5030,Block Group 6,6,408700,165741,0,37.769948,-122.188703,1,rooftop,2563,62nd Ave,,,Oakland,CA,Alameda County,94605,US,Alameda
1,1,S,60014088001,37.7583739,-122.191065,G5030,Block Group 1,6,408800,170314,0,37.758247,-122.190894,1,rooftop,1140,71st Ave,,,Oakland,CA,Alameda County,94621,US,Alameda
1,2,S,60014088002,37.7552746,-122.197186,G5030,Block Group 2,6,408800,352664,0,37.755475,-122.197357,1,rooftop,827,70th Ave,,,Oakland,CA,Alameda County,94621,US,Alameda
1,3,S,60014088003,37.7598823,-122.1948185,G5030,Block Group 3,6,408800,241554,0,37.759822,-122.194827,1,rooftop,6706,Lucille St,,,Oakland,CA,Alameda County,94621,US,Alameda
1,4,S,60014088004,37.7612081,-122.2001889,G5030,Block Group 4,6,408800,439820,0,37.761085,-122.20034,1,rooftop,6226,Tevis St,,,Oakland,CA,Alameda County,94621,US,Alameda
1,1,S,60014089001,37.7530749,-122.1884978,G5030,Block Group 1,6,408900,467552,0,37.752817,-122.187897,1,rooftop,919,81st Ave,,,Oakland,CA,Alameda County,94621,US,Alameda
1,2,S,60014089002,37.7557268,-122.1891747,G5030,Block Group 2,6,408900,334854,0,37.755651,-122.189176,1,rooftop,7520,Hamilton St,,,Oakland,CA,Alameda County,94621,US,Alameda
1,3,S,60014230003,37.8651738,-122.2792155,G5030,Block Group 3,6,423000,243390,0,37.865166,-122.279549,1,rooftop,2320,California St,,,Berkeley,CA,Alameda County,94703,US,Alameda
1,1,S,60014227001,37.8682736,-122.2473091,G5030,Block Group 1,6,422700,181838,0,37.868284,-122.247136,1,rooftop,136,Panoramic Way,,,Berkeley,CA,Alameda County,94704,US,Berkeley
1,2,S,60014227002,37.8671338,-122.250383,G5030,Block Group 2,6,422700,65614,0,37.867051,-122.25038,1,rooftop,2425,Warring St,,,Berkeley,CA,Alameda County,94704,US,Alameda
1,1,S,60014228001,37.8670327,-122.2569087,G5030,Block Group 1,6,422800,182982,0,37.866642,-122.257316,1,rooftop,2538,Channing Way,,,Berkeley,CA,Alameda County,94720,US,Berkeley
1,3,S,60014228003,37.8663433,-122.2633813,G5030,Block Group 3,6,422800,163538,0,37.866462,-122.263162,1,rooftop,2347,Ellsworth St,,,Berkeley,CA,Alameda County,94704,US,Berkeley
1,2,S,60014229002,37.8687746,-122.2698172,G5030,Block Group 2,6,422900,385452,0,37.868661,-122.269983,1,rooftop,2000,Allston Way,,,Berkeley,CA,Alameda County,94704,US,Alameda
1,1,S,60014230001,37.869546,-122.2774644,G5030,Block Group 1,6,423000,244945,0,37.869522,-122.277626,1,rooftop,2108,McGee Ave,,,Berkeley,CA,Alameda County,94703,US,Berkeley
1,2,S,60014230002,37.865788,-122.2747071,G5030,Block Group 2,6,423000,241748,0,37.865819,-122.275026,1,rooftop,2328,Grant St,,,Berkeley,CA,Alameda County,94703,US,Alameda
1,3,S,60014042003,37.8348851,-122.2372575,G5030,Block Group 3,6,404200,1883267,0,37.834315,-122.236312,0.99,rooftop,5000,Piedmont Ave,,,Oakland,CA,Alameda County,94611,US,Alameda
1,2,S,60014003002,37.836255,-122.2516875,G5030,Block Group 2,6,400300,269347,0,37.836138,-122.251675,1,rooftop,5211,Broadway,,,Oakland,CA,Alameda County,94618,US,Alameda
1,3,S,60014003003,37.8404594,-122.2597495,G5030,Block Group 3,6,400300,292396,0,37.840451,-122.259832,1,rooftop,5578,Vicente Way,,,Oakland,CA,Alameda County,94609,US,Alameda
1,4,S,60014003004,37.8402856,-122.2541313,G5030,Block Group 4,6,400300,278413,0,37.840302,-122.254035,1,rooftop,5360,Boyd Ave,,,Oakland,CA,Alameda County,94618,US,Alameda
1,1,S,60014004001,37.8500847,-122.2549755,G5030,Block Group 1,6,400400,266853,0,37.850207,-122.255049,1,rooftop,360,63rd St,,,Oakland,CA,Alameda County,94618,US,Alameda
1,3,S,60014004003,37.850124,-122.258756,G5030,Block Group 3,6,400400,201095,0,37.850135,-122.258771,1,rooftop,6389,Dana St,,,Oakland,CA,Alameda County,94609,US,Alameda
1,1,S,60014005001,37.8488953,-122.263197,G5030,Block Group 1,6,400500,362724,0,37.848659,-122.263124,1,rooftop,551,63rd St,,,Oakland,CA,Alameda County,94609,US,Alameda
1,3,S,60014058003,37.7948324,-122.2346709,G5030,Block Group 3,6,405800,139947,0,37.794882,-122.234558,1,rooftop,1827,E 25th St,,,Oakland,CA,Alameda County,94606,US,Alameda
1,2,S,60014060002,37.7915385,-122.251342,G5030,Block Group 2,6,406000,230538,0,37.791577,-122.251415,1,rooftop,950,Loomis Ct,,,Oakland,CA,Alameda County,94606,US,Alameda
1,3,S,60014060003,37.7952523,-122.2557761,G5030,Block Group 3,6,406000,265602,0,37.795346,-122.255848,1,rooftop,1138,4th Ave,,,Oakland,CA,Alameda County,94606,US,Alameda
1,1,S,60014090001,37.7402075,-122.1902944,G5030,Block Group 1,6,409000,1302879,0,37.73992,-122.188761,0.99,rooftop,8900,Edes Ave,,,Oakland,CA,Alameda County,94621,US,Alameda
1,3,S,60014090003,37.7311264,-122.1944159,G5030,Block Group 3,6,409000,1060501,0,37.731801,-122.193763,0.99,rooftop,9663,Empire Rd,,,Oakland,CA,Alameda County,94603,US,Alameda
1,4,S,60014231004,37.8625528,-122.2856323,G5030,Block Group 4,6,423100,154005,0,37.862548,-122.285734,1,rooftop,2423,Bonar St,,,Berkeley,CA,Alameda County,94702,US,Berkeley
1,1,S,60014091001,37.7350088,-122.1816318,G5030,Block Group 1,6,409100,298380,0,37.734976,-122.181717,1,rooftop,532,Stoneford Ave,,,Oakland,CA,Alameda County,94603,US,Alameda
1,2,S,60014091002,37.7324233,-122.1844906,G5030,Block Group 2,6,409100,192170,0,37.732424,-122.184592,1,rooftop,74,Eldridge Ave,,,Oakland,CA,Alameda County,94603,US,Alameda
1,1,S,60014231001,37.8683351,-122.2867485,G5030,Block Group 1,6,423100,275930,0,37.868314,-122.286837,1,rooftop,1250,Addison St,,,Berkeley,CA,Alameda County,94702,US,Alameda
1,3,S,60014231003,37.8643425,-122.2860047,G5030,Block Group 3,6,423100,161123,0,37.86443,-122.286123,1,rooftop,1303,Poe St,,,Berkeley,CA,Alameda County,94702,US,Alameda
1,1,S,60014232001,37.8664305,-122.2941069,G5030,Block Group 1,6,423200,234487,0,37.866468,-122.29408,1,rooftop,2122,9th St,,,Berkeley,CA,Alameda County,94710,US,Berkeley
1,2,S,60014232002,37.8624972,-122.2932414,G5030,Block Group 2,6,423200,222291,0,37.862466,-122.293169,1,rooftop,935,Channing Way,,,Berkeley,CA,Alameda County,94710,US,Alameda
1,1,S,60014233001,37.8603606,-122.2850127,G5030,Block Group 1,6,423300,222796,0,37.860202,-122.28499,1,rooftop,1301,Parker St,,,Berkeley,CA,Alameda County,94702,US,Berkeley
1,2,S,60014233002,37.8580023,-122.2815388,G5030,Block Group 2,6,423300,248373,0,37.857924,-122.281498,1,rooftop,1423,Ward St,,,Berkeley,CA,Alameda County,94702,US,Berkeley
1,3,S,60014233003,37.8549557,-122.284828,G5030,Block Group 3,6,423300,255456,0,37.855016,-122.28498,1,rooftop,2800,Mabel St,,,Berkeley,CA,Alameda County,94702,US,Berkeley
1,2,S,60014234002,37.860138,-122.2761635,G5030,Block Group 2,6,423400,151586,0,37.859975,-122.276182,1,rooftop,1646,Carleton St,,,Berkeley,CA,Alameda County,94703,US,Alameda
1,3,S,60014234003,37.8577233,-122.2758504,G5030,Block Group 3,6,423400,247961,0,37.857813,-122.275808,1,rooftop,2750,McGee Ave,,,Berkeley,CA,Alameda County,94703,US,Berkeley
1,1,S,60014011001,37.8342872,-122.2615934,G5030,Block Group 1,6,401100,168742,0,37.834576,-122.261165,1,rooftop,448,48th St,,,Oakland,CA,Alameda County,94609,US,Alameda
1,4,S,60014010004,37.8291541,-122.269251,G5030,Block Group 4,6,401000,141375,0,37.829334,-122.269188,1,rooftop,664,39th St,,,Oakland,CA,Alameda County,94609,US,Alameda
1,3,S,60014011003,37.825274,-122.2648565,G5030,Block Group 3,6,401100,206319,0,37.825433,-122.264967,1,rooftop,496,37th St,,,Oakland,CA,Alameda County,94609,US,Alameda
1,1,S,60014062021,37.7832541,-122.2278463,G5030,Block Group 1,6,406202,63499,0,37.783074,-122.227492,1,rooftop,1737,28th Ave,,,Oakland,CA,Alameda County,94601,US,Alameda
1,2,S,60014062022,37.780027,-122.2280221,G5030,Block Group 2,6,406202,133847,0,37.779956,-122.228066,1,rooftop,1448,29th Ave,,,Oakland,CA,Alameda County,94601,US,Alameda
1,1,S,60014063001,37.787945,-122.2221552,G5030,Block Group 1,6,406300,117161,0,37.787822,-122.222186,1,rooftop,3039,Logan St,,,Oakland,CA,Alameda County,94601,US,Alameda
1,2,S,60014063002,37.7883078,-122.2248611,G5030,Block Group 2,6,406300,144644,0,37.788198,-122.224768,1,rooftop,2409,27th Ave,,,Oakland,CA,Alameda County,94601,US,Alameda
1,4,S,60014063004,37.7904803,-122.22809,G5030,Block Group 4,6,406300,101038,0,37.790371,-122.228162,1,rooftop,2350,E 24th St,,,Oakland,CA,Alameda County,94601,US,Alameda
1,1,S,60014064001,37.7948976,-122.2192369,G5030,Block Group 1,6,406400,140953,0,37.794909,-122.219221,1,rooftop,2656,Nicol Ave,,,Oakland,CA,Alameda County,94602,US,Alameda
1,2,S,60014064002,37.795083,-122.2234727,G5030,Block Group 2,6,406400,347025,77534,37.794972,-122.223271,1,rooftop,2833,25th Ave,,,Oakland,CA,Alameda County,94601,US,Alameda
1,1,S,60014096001,37.756783,-122.1728465,G5030,Block Group 1,6,409600,140748,0,37.757067,-122.172878,1,rooftop,8330,Birch St,,,Oakland,CA,Alameda County,94621,US,Alameda
1,3,S,60014096003,37.7503656,-122.1694917,G5030,Block Group 3,6,409600,116029,0,37.750446,-122.169491,1,rooftop,1748,92nd Ave,,,Oakland,CA,Alameda County,94603,US,Alameda
1,4,S,60014096004,37.7503441,-122.1729549,G5030,Block Group 4,6,409600,156414,0,37.750634,-122.172652,1,rooftop,1541,90th Ave,,,Oakland,CA,Alameda County,94603,US,Alameda
1,1,S,60014097001,37.7592997,-122.1650986,G5030,Block Group 1,6,409700,246276,0,37.759337,-122.164683,1,rooftop,8519,Macarthur Blvd,,,Oakland,CA,Alameda County,94605,US,Alameda
1,2,S,60014098002,37.7572037,-122.1583344,G5030,Block Group 2,6,409800,646856,0,37.757129,-122.158326,1,rooftop,8933,Seneca St,,,Oakland,CA,Alameda County,94605,US,Alameda
1,2,S,60014097002,37.7526563,-122.1642912,G5030,Block Group 2,6,409700,213599,0,37.75279,-122.164304,1,rooftop,2228,92nd Ave,,,Oakland,CA,Alameda County,94603,US,Alameda
1,3,S,60014097003,37.7551822,-122.1656948,G5030,Block Group 3,6,409700,173480,0,37.755218,-122.165786,1,rooftop,2240,88th Ave,,,Oakland,CA,Alameda County,94605,US,Alameda
1,4,S,60014097004,37.758153,-122.1691081,G5030,Block Group 4,6,409700,177949,0,37.758122,-122.169422,1,rooftop,2078,84th Ave,,,Oakland,CA,Alameda County,94621,US,Alameda
1,1,S,60014238001,37.8548743,-122.2380015,G5030,Block Group 1,6,423800,375242,0,37.854842,-122.238092,1,rooftop,156,Tunnel Rd,,,Berkeley,CA,Alameda County,94705,US,Alameda
1,2,S,60014238002,37.8543269,-122.2450432,G5030,Block Group 2,6,423800,399340,0,37.854347,-122.24498,1,rooftop,77,Parkside Dr,,,Berkeley,CA,Alameda County,94705,US,Berkeley
1,3,S,60014238003,37.855168,-122.2502194,G5030,Block Group 3,6,423800,297875,0,37.855289,-122.25026,1,rooftop,2757,Prince St,,,Berkeley,CA,Alameda County,94705,US,Berkeley
1,2,S,60014239012,37.8513445,-122.2692914,G5030,Block Group 2,6,423901,259408,0,37.85121,-122.269227,1,rooftop,1927,Fairview St,,,Berkeley,CA,Alameda County,94703,US,Berkeley
1,1,S,60014239021,37.8549511,-122.2545465,G5030,Block Group 1,6,423902,126618,0,37.854941,-122.2546,1,rooftop,3021,Hillegass Ave,,,Berkeley,CA,Alameda County,94705,US,Alameda
1,1,S,60014240011,37.8528973,-122.2749872,G5030,Block Group 1,6,424001,140732,0,37.853144,-122.275073,1,rooftop,1643,Tyler St,,,Berkeley,CA,Alameda County,94703,US,Alameda
1,2,S,60014240012,37.8514288,-122.2741707,G5030,Block Group 2,6,424001,87713,0,37.851409,-122.274281,1,rooftop,3118,King St,,,Berkeley,CA,Alameda County,94703,US,Alameda
1,3,S,60014240013,37.8500719,-122.275037,G5030,Block Group 3,6,424001,113742,0,37.84986,-122.274919,1,rooftop,1628,Fairview St,,,Berkeley,CA,Alameda County,94703,US,Berkeley
1,1,S,60014054011,37.7979937,-122.2480327,G5030,Block Group 1,6,405401,120531,0,37.798201,-122.247989,1,rooftop,610,E 19th St,,,Oakland,CA,Alameda County,94606,US,Alameda
1,2,S,60014054012,37.7962801,-122.2494375,G5030,Block Group 2,6,405401,98398,0,37.796006,-122.249338,1,rooftop,1652,7th Ave,,,Oakland,CA,Alameda County,94606,US,Alameda
1,1,S,60014059011,37.7857645,-122.2376228,G5030,Block Group 1,6,405901,133241,0,37.785984,-122.237423,1,rooftop,2124,E 15th St,,,Oakland,CA,Alameda County,94606,US,Alameda
1,3,S,60014059013,37.7873975,-122.2360208,G5030,Block Group 3,6,405901,132646,0,37.78763,-122.235804,1,rooftop,2124,E 17th St,,,Oakland,CA,Alameda County,94606,US,Alameda
1,1,S,60014065001,37.7908593,-122.2158151,G5030,Block Group 1,6,406500,239955,0,37.790851,-122.215825,1,rooftop,2855,Coolidge Ave,,,Oakland,CA,Alameda County,94601,US,Alameda
1,4,S,60014065004,37.7886553,-122.2186819,G5030,Block Group 4,6,406500,146623,0,37.788652,-122.218675,1,rooftop,3252,Prentiss St,,,Oakland,CA,Alameda County,94601,US,Alameda
1,1,S,60014066011,37.7911941,-122.2078694,G5030,Block Group 1,6,406601,136667,0,37.79113,-122.207856,1,rooftop,2830,Humboldt Ave,,,Oakland,CA,Alameda County,94602,US,Alameda
1,1,S,60014066021,37.797531,-122.2137966,G5030,Block Group 1,6,406602,286382,0,37.797031,-122.214086,1,rooftop,3231,Boston Ave,,,Oakland,CA,Alameda County,94602,US,Alameda
1,2,S,60014066012,37.7921873,-122.211091,G5030,Block Group 2,6,406601,198507,0,37.792168,-122.210971,1,rooftop,3050,Curran Ave,,,Oakland,CA,Alameda County,94602,US,Alameda
1,3,S,60014066013,37.7960362,-122.2081112,G5030,Block Group 3,6,406601,238509,0,37.796121,-122.208037,1,rooftop,3404,Curran Way,,,Oakland,CA,Alameda County,94602,US,Alameda
1,4,S,60014066014,37.7938023,-122.2042486,G5030,Block Group 4,6,406601,173720,0,37.793873,-122.204416,1,rooftop,3251,Delaware St,,,Oakland,CA,Alameda County,94602,US,Alameda
1,1,S,60014071011,37.7821566,-122.2158838,G5030,Block Group 1,6,407101,222488,0,37.782239,-122.216035,1,rooftop,2036,36th Ave,,,Oakland,CA,Alameda County,94601,US,Alameda
1,2,S,60014071012,37.7845865,-122.2121658,G5030,Block Group 2,6,407101,148338,0,37.784484,-122.212149,1,rooftop,2242,Harrington Ave,,,Oakland,CA,Alameda County,94601,US,Alameda
1,4,S,60014071024,37.7777095,-122.2103302,G5030,Block Group 4,6,407102,157064,0,37.777665,-122.21054,1,rooftop,4150,Carrington St,,,Oakland,CA,Alameda County,94601,US,Alameda
1,3,S,60014071023,37.7805079,-122.2130115,G5030,Block Group 3,6,407102,127712,0,37.780666,-122.213229,1,rooftop,2097,39th Ave,,,Oakland,CA,Alameda County,94601,US,Alameda
1,3,S,60014081003,37.774866,-122.1363451,G5030,Block Group 3,6,408100,727426,0,37.775065,-122.136121,1,rooftop,7970,Surrey Ln,,,Oakland,CA,Alameda County,94605,US,Alameda
1,3,S,60014095003,37.7503834,-122.1782851,G5030,Block Group 3,6,409500,138550,0,37.750458,-122.17833,1,rooftop,1240,87th Ave,,,Oakland,CA,Alameda County,94621,US,Alameda
1,1,S,60014071021,37.7836561,-122.2079962,G5030,Block Group 1,6,407102,247618,0,37.783648,-122.20784,1,rooftop,3912,Lyon Ave,,,Oakland,CA,Alameda County,94601,US,Alameda
1,1,S,60014229001,37.8657427,-122.2678632,G5030,Block Group 1,6,422900,158830,0,37.865505,-122.268023,1,rooftop,2410,Shattuck Ave,,,Berkeley,CA,Alameda County,94704,US,Berkeley
1,4,S,60014081004,37.7796998,-122.1490431,G5030,Block Group 4,6,408100,1652904,0,37.780508,-122.153256,0.95,nearest_street,4993,Stoneridge Ct,,,Oakland,CA,Alameda County,94605,US,TIGER/Line¬Æ dataset from the US Census Bureau
1,2,S,60014037012,37.8105269,-122.2580095,G5030,Block Group 2,6,403701,94848,0,37.810579,-122.258201,1,rooftop,325,Lenox Ave,,,Oakland,CA,Alameda County,94610,US,Alameda
1,1,S,60014081001,37.7921372,-122.1574626,G5030,Block Group 1,6,408100,3490909,0,37.791994,-122.157616,1,rooftop,12701,Skyline Blvd,,,Oakland,CA,Alameda County,94619,US,Alameda
1,2,S,60014054022,37.7946442,-122.2442564,G5030,Block Group 2,6,405402,94280,0,37.7946,-122.243938,1,rooftop,1904,11th Ave,,,Oakland,CA,Alameda County,94606,US,Alameda
1,2,S,60014071022,37.7792409,-122.2116911,G5030,Block Group 2,6,407102,128469,0,37.779393,-122.21191,1,rooftop,2073,Rosedale Ave,,,Oakland,CA,Alameda County,94601,US,Alameda
1,3,S,60014063003,37.7907421,-122.2253856,G5030,Block Group 3,6,406300,122873,0,37.790755,-122.225321,1,rooftop,2429,E 26th St,,,Oakland,CA,Alameda County,94601,US,Alameda
1,2,S,60014053022,37.7978218,-122.2528439,G5030,Block Group 2,6,405302,93633,0,37.798029,-122.252752,1,rooftop,350,Foothill Blvd,,,Oakland,CA,Alameda County,94606,US,Alameda
1,1,S,60014035011,37.8142546,-122.2627014,G5030,Block Group 1,6,403501,268214,0,37.81407,-122.26287,1,rooftop,295,27th St,,,Oakland,CA,Alameda County,94612,US,Alameda
1,2,S,60014028002,37.8090936,-122.2707915,G5030,Block Group 2,6,402800,307818,0,37.809254,-122.270738,1,rooftop,500,William St,,,Oakland,CA,Alameda County,94612,US,Alameda
1,4,S,60014034004,37.8031134,-122.2638311,G5030,Block Group 4,6,403400,37936,0,37.803172,-122.264051,1,rooftop,1514,Jackson St,,,Oakland,CA,Alameda County,94612,US,Alameda
1,2,S,60014035012,37.8191889,-122.2588125,G5030,Block Group 2,6,403501,284166,0,37.819046,-122.258649,1,rooftop,3239,Kempton Ave,,,Oakland,CA,Alameda County,94611,US,Alameda
1,3,S,60014035013,37.8221908,-122.2569921,G5030,Block Group 3,6,403501,117493,0,37.82207,-122.257107,1,rooftop,24,Westall Ave,,,Oakland,CA,Alameda County,94611,US,Alameda
1,3,S,60014036003,37.8116998,-122.2533195,G5030,Block Group 3,6,403600,141106,0,37.811646,-122.253276,1,rooftop,375,Bellevue Ave,,,Oakland,CA,Alameda County,94610,US,Alameda
1,1,S,60014037011,37.8120365,-122.2594523,G5030,Block Group 1,6,403701,79099,0,37.812109,-122.259519,1,rooftop,157,Montecito Ave,,,Oakland,CA,Alameda County,94610,US,Alameda
1,1,S,60014037021,37.8098411,-122.2501236,G5030,Block Group 1,6,403702,107790,0,37.809902,-122.250247,1,rooftop,427,Lagunitas Ave,,,Oakland,CA,Alameda County,94610,US,Alameda
1,2,S,60014037022,37.8090927,-122.2544186,G5030,Block Group 2,6,403702,91310,0,37.809154,-122.254532,1,rooftop,388,Grand Ave,,,Oakland,CA,Alameda County,94610,US,Alameda
1,1,S,60014041021,37.8256585,-122.2498624,G5030,Block Group 1,6,404102,147356,0,37.825715,-122.25009,1,rooftop,85,Glen Ave,,,Oakland,CA,Alameda County,94611,US,Alameda
1,1,S,60014035021,37.814361,-122.2588772,G5030,Block Group 1,6,403502,76143,0,37.814551,-122.258958,1,rooftop,2710,Harrison St,,,Oakland,CA,Alameda County,94612,US,Alameda
1,2,S,60014035022,37.8171084,-122.2555527,G5030,Block Group 2,6,403502,106318,0,37.817195,-122.255662,1,rooftop,392,Oakland Ave,,,Oakland,CA,Alameda County,94611,US,Alameda
1,2,S,60014041022,37.8266684,-122.2532097,G5030,Block Group 2,6,404102,82816,0,37.826646,-122.253182,1,rooftop,175,41st St,,,Oakland,CA,Alameda County,94611,US,Alameda
1,2,S,60014053012,37.8010675,-122.2526572,G5030,Block Group 2,6,405301,76331,0,37.801214,-122.252834,1,rooftop,155,Athol Ave,,,Oakland,CA,Alameda County,94606,US,Alameda
1,1,S,60014059021,37.7926008,-122.2389875,G5030,Block Group 1,6,405902,199888,0,37.792632,-122.238876,1,rooftop,1637,E 21st St,,,Oakland,CA,Alameda County,94606,US,Alameda
1,3,S,60014062023,37.7829036,-122.2251277,G5030,Block Group 3,6,406202,194837,0,37.782739,-122.224992,1,rooftop,2920,E 18th St,,,Oakland,CA,Alameda County,94601,US,Alameda
1,2,S,60014090002,37.7529267,-122.2106011,G5030,Block Group 2,6,409000,3906148,1748425,37.75275,-122.210432,0.99,nearest_street,7892,Oakport St,,,Oakland,CA,Alameda County,94621,US,TIGER/Line¬Æ dataset from the US Census Bureau
1,2,S,60014092002,37.7295211,-122.1806129,G5030,Block Group 2,6,409200,269629,0,37.729575,-122.180792,1,rooftop,10344,Knight St,,,Oakland,CA,Alameda County,94603,US,Alameda
1,2,S,60014220002,37.8760186,-122.3021615,G5030,Block Group 2,6,422000,1202770,0,37.875898,-122.301881,1,rooftop,770,Page St,,,Berkeley,CA,Alameda County,94710,US,Berkeley
1,3,S,60014236023,37.8622378,-122.2592001,G5030,Block Group 3,6,423602,197176,0,37.862117,-122.259215,1,rooftop,2628,Telegraph Ave,,,Berkeley,CA,Alameda County,94704,US,Berkeley
1,2,S,60014005002,37.8465131,-122.2670453,G5030,Block Group 2,6,400500,135779,0,37.846606,-122.267012,1,rooftop,650,61st St,,,Oakland,CA,Alameda County,94609,US,Alameda
1,3,S,60014054013,37.7949596,-122.2512816,G5030,Block Group 3,6,405401,95001,0,37.794977,-122.251547,1,rooftop,1451,7th Ave,,,Oakland,CA,Alameda County,94606,US,Alameda
1,2,S,60014066022,37.794129,-122.2154466,G5030,Block Group 2,6,406602,128342,0,37.794154,-122.215505,1,rooftop,3034,Capp St,,,Oakland,CA,Alameda County,94602,US,Alameda
1,1,S,60014002001,37.8497451,-122.2488478,G5030,Block Group 1,6,400200,288069,0,37.849645,-122.249058,1,rooftop,6021,Rockwell St,,,Oakland,CA,Alameda County,94618,US,Alameda
1,1,S,60014067001,37.8054443,-122.1985069,G5030,Block Group 1,6,406700,785419,0,37.805441,-122.19847,1,rooftop,2852,Steinmetz Way,,,Oakland,CA,Alameda County,94602,US,Alameda
1,4,S,60014090004,37.7118542,-122.2178896,G5030,Block Group 4,6,409000,10651357,2641017,37.71289,-122.213761,0.95,nearest_street,1253,Airport Dr,,,Oakland,CA,Alameda County,94621,US,TIGER/Line¬Æ dataset from the US Census Bureau
1,1,S,60014026001,37.8042701,-122.2799551,G5030,Block Group 1,6,402600,318842,0,37.804226,-122.279869,1,nearest_street,,I 980,,,Oakland,CA,Alameda County,94607,US,TIGER/Line¬Æ dataset from the US Census Bureau
1,1,S,60014027001,37.8099582,-122.275623,G5030,Block Group 1,6,402700,207668,0,37.80983,-122.275606,1,nearest_street,,I 980,,,Oakland,CA,Alameda County,94612,US,TIGER/Line¬Æ dataset from the US Census Bureau
1,2,S,60014027002,37.8108535,-122.2784772,G5030,Block Group 2,6,402700,191152,0,37.810828,-122.278562,1,rooftop,850,18th St,,,Oakland,CA,Alameda County,94607,US,Alameda
1,1,S,60014028001,37.8074404,-122.2739104,G5030,Block Group 1,6,402800,90493,0,37.807539,-122.273897,1,rooftop,1605,Jefferson St,,,Oakland,CA,Alameda County,94612,US,Alameda
1,1,S,60014030001,37.8014203,-122.271687,G5030,Block Group 1,6,403000,146630,0,37.801616,-122.272091,1,rooftop,1000,Broadway,,,Oakland,CA,Alameda County,94607,US,Alameda
1,2,S,60014030002,37.7997314,-122.2700435,G5030,Block Group 2,6,403000,205764,0,37.799897,-122.270022,1,rooftop,316,9th St,,,Oakland,CA,Alameda County,94607,US,Alameda
1,1,S,60014031001,37.8022741,-122.2755012,G5030,Block Group 1,6,403100,346852,0,37.802344,-122.275709,1,rooftop,911,Clay St,,,Oakland,CA,Alameda County,94607,US,Alameda
1,4,S,60014067004,37.803156,-122.2040761,G5030,Block Group 4,6,406700,208839,0,37.803226,-122.204319,1,rooftop,3957,Coolidge Ave,,,Oakland,CA,Alameda County,94602,US,Alameda
1,5,S,60014067005,37.804374,-122.2074507,G5030,Block Group 5,6,406700,175363,0,37.804394,-122.207347,1,rooftop,2501,Rampart St,,,Oakland,CA,Alameda County,94602,US,Alameda
1,1,S,60014068001,37.8016934,-122.1908835,G5030,Block Group 1,6,406800,274258,0,37.801571,-122.190966,1,rooftop,4425,Norton Ave,,,Oakland,CA,Alameda County,94602,US,Alameda
1,2,S,60014068002,37.798418,-122.1940904,G5030,Block Group 2,6,406800,192439,0,37.798362,-122.194016,1,rooftop,4150,Midvale Ave,,,Oakland,CA,Alameda County,94602,US,Alameda
1,3,S,60014068003,37.794071,-122.1964244,G5030,Block Group 3,6,406800,227666,0,37.793974,-122.196255,1,rooftop,3814,Loma Vista Ave,,,Oakland,CA,Alameda County,94619,US,Alameda
1,4,S,60014068004,37.7966464,-122.1993128,G5030,Block Group 4,6,406800,218164,0,37.796749,-122.199305,1,rooftop,3775,Silverwood Ave,,,Oakland,CA,Alameda County,94602,US,Alameda
1,1,S,60014069001,37.7972758,-122.1885563,G5030,Block Group 1,6,406900,214616,0,37.797238,-122.188614,1,rooftop,4223,Atlas Ave,,,Oakland,CA,Alameda County,94619,US,Alameda
1,3,S,60014103003,37.7456188,-122.1691346,G5030,Block Group 3,6,410300,199382,0,37.745717,-122.168961,1,rooftop,9719,Walnut St,,,Oakland,CA,Alameda County,94603,US,Alameda
1,1,S,60014104001,37.7430359,-122.1604279,G5030,Block Group 1,6,410400,153096,0,37.742945,-122.160471,1,rooftop,2039,103rd Ave,,,Oakland,CA,Alameda County,94603,US,Alameda
1,2,S,60014104002,37.7398093,-122.158935,G5030,Block Group 2,6,410400,188081,0,37.739738,-122.158799,1,rooftop,2017,108th Ave,,,Oakland,CA,Alameda County,94603,US,Alameda
1,3,S,60014104003,37.7404042,-122.1645727,G5030,Block Group 3,6,410400,365434,0,37.740463,-122.164607,1,rooftop,1557,105th Ave,,,Oakland,CA,Alameda County,94603,US,Alameda
1,1,S,60014043001,37.8478563,-122.2362003,G5030,Block Group 1,6,404300,991454,25272,37.848061,-122.23607,1,rooftop,5790,Buena Vista Ave,,,Oakland,CA,Alameda County,94618,US,Alameda
1,3,S,60014034003,37.8026482,-122.2626597,G5030,Block Group 3,6,403400,37469,0,37.802705,-122.262899,1,rooftop,1520,Madison St,,,Oakland,CA,Alameda County,94612,US,Alameda
1,1,S,60014221001,37.8763826,-122.2975354,G5030,Block Group 1,6,422100,199738,0,37.876404,-122.297748,1,rooftop,1441,8th St,,,Berkeley,CA,Alameda County,94710,US,Berkeley
1,2,S,60014087002,37.7689404,-122.1848982,G5030,Block Group 2,6,408700,185835,0,37.768912,-122.184941,1,rooftop,2618,65th Ave,,,Oakland,CA,Alameda County,94605,US,Alameda
1,2,S,60014050002,37.8093474,-122.2236159,G5030,Block Group 2,6,405000,261851,0,37.809402,-122.223531,1,rooftop,807,Everett Ave,,,Oakland,CA,Alameda County,94602,US,Alameda
1,1,S,60014046001,37.829707,-122.192782,G5030,Block Group 1,6,404600,670949,0,37.829764,-122.192665,1,rooftop,6525,Girvin Dr,,,Oakland,CA,Alameda County,94611,US,Alameda
1,2,S,60014070002,37.786764,-122.1999672,G5030,Block Group 2,6,407000,185086,0,37.786639,-122.200091,1,rooftop,4205,Suter St,,,Oakland,CA,Alameda County,94619,US,Alameda
1,2,S,60014011002,37.8292817,-122.2625471,G5030,Block Group 2,6,401100,182989,0,37.829149,-122.26262,1,rooftop,460,40th St,,,Oakland,CA,Alameda County,94609,US,Alameda
1,3,S,60014237003,37.8636286,-122.2525808,G5030,Block Group 3,6,423700,98299,0,37.863722,-122.252305,1,rooftop,2605,Etna St,,,Berkeley,CA,Alameda County,94704,US,Alameda
1,1,S,60014061001,37.7749377,-122.2247873,G5030,Block Group 1,6,406100,538610,0,37.774673,-122.22471,1,rooftop,1012,34th Ave,,,Oakland,CA,Alameda County,94601,US,Alameda
1,1,S,60014006001,37.8432924,-122.264538,G5030,Block Group 1,6,400600,166589,0,37.843303,-122.264506,1,rooftop,587,58th St,,,Oakland,CA,Alameda County,94609,US,Alameda
1,2,S,60014006002,37.8403392,-122.2653325,G5030,Block Group 2,6,400600,131267,0,37.840613,-122.265361,1,rooftop,622,55th St,,,Oakland,CA,Alameda County,94609,US,Alameda
1,1,S,60014062011,37.7869532,-122.2288343,G5030,Block Group 1,6,406201,134976,0,37.786721,-122.229032,1,rooftop,2439,E 21st St,,,Oakland,CA,Alameda County,94601,US,Alameda
1,2,S,60014061002,37.7698464,-122.22569,G5030,Block Group 2,6,406100,618298,35844,37.770837,-122.225109,0.99,rooftop,702,36th Ave,,,Oakland,CA,Alameda County,94601,US,Alameda
1,3,S,60014061003,37.7727086,-122.2324001,G5030,Block Group 3,6,406100,293436,39031,37.772592,-122.23209,1,rooftop,525,Derby Ave,,,Oakland,CA,Alameda County,94601,US,Alameda
1,4,S,60014061004,37.7792504,-122.2339877,G5030,Block Group 4,6,406100,393358,0,37.778992,-122.233996,1,rooftop,2636,E 11th St,,,Oakland,CA,Alameda County,94601,US,Alameda
1,2,S,60014062012,37.7857599,-122.2314483,G5030,Block Group 2,6,406201,77141,0,37.78579,-122.231514,1,rooftop,1749,24th Ave,,,Oakland,CA,Alameda County,94601,US,Alameda
1,4,S,60014234004,37.8550903,-122.2752672,G5030,Block Group 4,6,423400,200157,0,37.854942,-122.275213,1,rooftop,1641,Julia St,,,Berkeley,CA,Alameda County,94703,US,Alameda
1,3,S,60014062013,37.7841568,-122.2303334,G5030,Block Group 3,6,406201,87031,0,37.784387,-122.230308,1,rooftop,2525,Foothill Blvd,,,Oakland,CA,Alameda County,94601,US,Alameda
1,4,S,60014062014,37.7828831,-122.2329094,G5030,Block Group 4,6,406201,108927,0,37.782665,-122.23287,1,rooftop,2501,E 15th St,,,Oakland,CA,Alameda County,94601,US,Alameda
1,1,S,60014092001,37.7288188,-122.1761664,G5030,Block Group 1,6,409200,447169,0,37.728791,-122.176146,1,rooftop,10827,Estepa Dr,,,Oakland,CA,Alameda County,94603,US,Alameda
1,3,S,60014093003,37.7381187,-122.1761164,G5030,Block Group 3,6,409300,456614,0,37.738638,-122.176051,1,rooftop,9957,Medford Ave,,,Oakland,CA,Alameda County,94603,US,Alameda
1,4,S,60014093004,37.7335869,-122.173561,G5030,Block Group 4,6,409300,202496,0,37.733579,-122.173504,1,rooftop,10741,Russet St,,,Oakland,CA,Alameda County,94603,US,Alameda
1,2,S,60014094002,37.7438649,-122.1822047,G5030,Block Group 2,6,409400,933591,0,37.744075,-122.181819,1,rooftop,888,92nd Ave,,,Oakland,CA,Alameda County,94603,US,Alameda
1,3,S,60014094003,37.7479646,-122.1761466,G5030,Block Group 3,6,409400,192794,0,37.748009,-122.176103,1,rooftop,1260,91st Ave,,,Oakland,CA,Alameda County,94603,US,Alameda
1,1,S,60014095001,37.7495006,-122.1867156,G5030,Block Group 1,6,409500,500554,0,37.749568,-122.186473,1,rooftop,8410,Amelia St,,,Oakland,CA,Alameda County,94621,US,Alameda
1,1,S,60014237001,37.8636508,-122.247944,G5030,Block Group 1,6,423700,306152,0,37.863166,-122.247349,1,rooftop,2951,Derby St,,,Berkeley,CA,Alameda County,94705,US,Alameda
1,1,S,60014235001,37.8619962,-122.2684184,G5030,Block Group 1,6,423500,253711,0,37.862267,-122.268443,1,rooftop,2027,Parker St,,,Berkeley,CA,Alameda County,94704,US,Alameda
1,2,S,60014235002,37.8588562,-122.2679242,G5030,Block Group 2,6,423500,198116,0,37.858652,-122.268137,1,rooftop,2748,Adeline St,,,Berkeley,CA,Alameda County,94703,US,Alameda
1,3,S,60014235003,37.8562701,-122.2676704,G5030,Block Group 3,6,423500,183917,0,37.856246,-122.267774,1,rooftop,2906,Newbury St,,,Berkeley,CA,Alameda County,94703,US,Alameda
1,1,S,60014236011,37.8599204,-122.258048,G5030,Block Group 1,6,423601,296205,0,37.86017,-122.258073,1,rooftop,2455,Stuart St,,,Berkeley,CA,Alameda County,94705,US,Berkeley
1,2,S,60014236012,37.8575464,-122.2595937,G5030,Block Group 2,6,423601,227231,0,37.857477,-122.259847,1,rooftop,2900,Telegraph Ave,,,Berkeley,CA,Alameda County,94705,US,Berkeley
1,1,S,60014236021,37.8637999,-122.2618113,G5030,Block Group 1,6,423602,116892,0,37.864035,-122.261878,1,rooftop,2321,Blake St,,,Berkeley,CA,Alameda County,94704,US,Berkeley
1,2,S,60014236022,37.8644448,-122.2561319,G5030,Block Group 2,6,423602,90477,0,37.864328,-122.256165,1,rooftop,2527,Hillegass Ave,,,Berkeley,CA,Alameda County,94704,US,Berkeley
1,2,S,60014237002,37.8595618,-122.2489323,G5030,Block Group 2,6,423700,324239,0,37.859436,-122.24886,1,rooftop,2920,Avalon Ave,,,Berkeley,CA,Alameda County,94705,US,Alameda